[
  {
    "id": "151140030",
    "station": "Przewoźniki",
    "lon": "14.8217",
    "lat": "51.5253"
  },
  {
    "id": "153190040",
    "station": "Bągart",
    "lon": "19.3692",
    "lat": "53.9661"
  },
  {
    "id": "149210120",
    "station": "Godowa",
    "lon": "21.8117",
    "lat": "49.8486"
  },
  {
    "id": "154190080",
    "station": "Żukowo",
    "lon": "19.4508",
    "lat": "54.1028"
  },
  {
    "id": "154180220",
    "station": "Gdańska Głowa",
    "lon": "18.9514",
    "lat": "54.2669"
  },
  {
    "id": "154190050",
    "station": "Nowe Batorowo",
    "lon": "19.3631",
    "lat": "54.2306"
  },
  {
    "id": "154180210",
    "station": "Ujście Wisły",
    "lon": "18.9428",
    "lat": "54.3528"
  },
  {
    "id": "154180190",
    "station": "Przegalina",
    "lon": "18.9292",
    "lat": "54.3106"
  },
  {
    "id": "154190060",
    "station": "Elbląg",
    "lon": "19.3878",
    "lat": "54.1722"
  },
  {
    "id": "154180200",
    "station": "Świbno",
    "lon": "18.9356",
    "lat": "54.3364"
  },
  {
    "id": "153140190",
    "station": "Regalica Szczecin",
    "lon": "14.5925",
    "lat": "53.3689"
  },
  {
    "id": "154160150",
    "station": "Darłowo",
    "lon": "16.3803",
    "lat": "54.4392"
  },
  {
    "id": "154180100",
    "station": "Władysławowo",
    "lon": "18.4186",
    "lat": "54.7967"
  },
  {
    "id": "154190020",
    "station": "Tujsk",
    "lon": "19.1383",
    "lat": "54.2842"
  },
  {
    "id": "153140020",
    "station": "Widuchowa",
    "lon": "14.3819",
    "lat": "53.1225"
  },
  {
    "id": "154160110",
    "station": "Ustka",
    "lon": "16.8539",
    "lat": "54.5881"
  },
  {
    "id": "154190090",
    "station": "Tolkmicko",
    "lon": "19.5231",
    "lat": "54.3233"
  },
  {
    "id": "153180120",
    "station": "Hel",
    "lon": "18.8006",
    "lat": "54.6019"
  },
  {
    "id": "153140030",
    "station": "Gryfino",
    "lon": "14.4844",
    "lat": "53.2569"
  },
  {
    "id": "154180140",
    "station": "Gdańsk",
    "lon": "18.6981",
    "lat": "54.3997"
  },
  {
    "id": "154180180",
    "station": "Suchy Dąb",
    "lon": "18.7319",
    "lat": "54.2314"
  },
  {
    "id": "153230130",
    "station": "Harasimowicze",
    "lon": "23.4489",
    "lat": "53.6625"
  },
  {
    "id": "154170100",
    "station": "Łeba",
    "lon": "17.5506",
    "lat": "54.7633"
  },
  {
    "id": "154180160",
    "station": "Sobieszewo",
    "lon": "18.8153",
    "lat": "54.3464"
  },
  {
    "id": "153140050",
    "station": "Szczecin",
    "lon": "14.5597",
    "lat": "53.4225"
  },
  {
    "id": "154190030",
    "station": "Osłonka",
    "lon": "19.245",
    "lat": "54.265"
  },
  {
    "id": "154180120",
    "station": "Gdynia",
    "lon": "18.5553",
    "lat": "54.5178"
  },
  {
    "id": "154190040",
    "station": "Dolna Kępa",
    "lon": "19.3",
    "lat": "54.2525"
  },
  {
    "id": "154150030",
    "station": "Kołobrzeg",
    "lon": "15.5533",
    "lat": "54.1867"
  },
  {
    "id": "154190010",
    "station": "Nowy Dwór Gdański",
    "lon": "19.1131",
    "lat": "54.2144"
  },
  {
    "id": "154180090",
    "station": "Puck",
    "lon": "18.4108",
    "lat": "54.7225"
  },
  {
    "id": "153140010",
    "station": "Świnoujście",
    "lon": "14.2644",
    "lat": "53.9083"
  },
  {
    "id": "153140070",
    "station": "Dziwnów",
    "lon": "14.7317",
    "lat": "54.0206"
  },
  {
    "id": "153140040",
    "station": "Trzebież",
    "lon": "14.5189",
    "lat": "53.6592"
  },
  {
    "id": "153140060",
    "station": "Wolin",
    "lon": "14.6167",
    "lat": "53.8381"
  },
  {
    "id": "154190130",
    "station": "Nowa Pasłęka",
    "lon": "19.7461",
    "lat": "54.4258"
  },
  {
    "id": "154170090",
    "station": "Izbica",
    "lon": "17.4281",
    "lat": "54.6811"
  },
  {
    "id": "154180170",
    "station": "Wiślina",
    "lon": "18.7253",
    "lat": "54.3075"
  },
  {
    "id": "153190170",
    "station": "Ostróda",
    "lon": "19.9594",
    "lat": "53.7028"
  },
  {
    "id": "154190150",
    "station": "Pierzchały",
    "lon": "19.8489",
    "lat": "54.3006"
  },
  {
    "id": "154170190",
    "station": "Borucino",
    "lon": "17.9914",
    "lat": "54.2533"
  },
  {
    "id": "154190100",
    "station": "Pasłęk",
    "lon": "19.66",
    "lat": "54.0706"
  },
  {
    "id": "151180130",
    "station": "Działoszyn",
    "lon": "18.8733",
    "lat": "51.1103"
  },
  {
    "id": "150170290",
    "station": "Opole - Groszowice",
    "lon": "17.9383",
    "lat": "50.6342"
  },
  {
    "id": "149190070",
    "station": "Łodygowice",
    "lon": "19.1361",
    "lat": "49.7272"
  },
  {
    "id": "153210140",
    "station": "Szkwa",
    "lon": "21.6858",
    "lat": "53.1803"
  },
  {
    "id": "153220160",
    "station": "Osowiec 2",
    "lon": "22.6267",
    "lat": "53.4867"
  },
  {
    "id": "153220270",
    "station": "Babino",
    "lon": "22.9425",
    "lat": "53.1542"
  },
  {
    "id": "152230120",
    "station": "Bondary - Siemianówka",
    "lon": "23.7572",
    "lat": "52.9403"
  },
  {
    "id": "152230040",
    "station": "Ploski",
    "lon": "23.2322",
    "lat": "52.9022"
  },
  {
    "id": "150150010",
    "station": "Mirsk",
    "lon": "15.3842",
    "lat": "50.9892"
  },
  {
    "id": "153150050",
    "station": "Resko",
    "lon": "15.3953",
    "lat": "53.7728"
  },
  {
    "id": "151170030",
    "station": "Trestno",
    "lon": "17.1469",
    "lat": "51.0822"
  },
  {
    "id": "151230010",
    "station": "Trawniki",
    "lon": "23.0011",
    "lat": "51.1386"
  },
  {
    "id": "152150110",
    "station": "Skwierzyna",
    "lon": "15.5003",
    "lat": "52.6019"
  },
  {
    "id": "154180150",
    "station": "Tczew",
    "lon": "18.8056",
    "lat": "54.0872"
  },
  {
    "id": "149220140",
    "station": "Polana",
    "lon": "22.5742",
    "lat": "49.3025"
  },
  {
    "id": "152150270",
    "station": "Zbąszyń",
    "lon": "15.9119",
    "lat": "52.2472"
  },
  {
    "id": "154180260",
    "station": "Pruszcz Gdański_kanał",
    "lon": "18.63",
    "lat": "54.2533"
  },
  {
    "id": "152180160",
    "station": "Konin-Morzysław",
    "lon": "18.2942",
    "lat": "52.2306"
  },
  {
    "id": "152200110",
    "station": "Modlin",
    "lon": "20.6597",
    "lat": "52.4306"
  },
  {
    "id": "152200030",
    "station": "Wyszogród",
    "lon": "20.1931",
    "lat": "52.3847"
  },
  {
    "id": "152200150",
    "station": "Wychódźc",
    "lon": "20.4228",
    "lat": "52.3939"
  },
  {
    "id": "150200070",
    "station": "Biskupice",
    "lon": "20.4992",
    "lat": "50.1775"
  },
  {
    "id": "150180030",
    "station": "Koźle",
    "lon": "18.1467",
    "lat": "50.3519"
  },
  {
    "id": "150210030",
    "station": "Mocha",
    "lon": "21.0803",
    "lat": "50.6706"
  },
  {
    "id": "150180160",
    "station": "Pyskowice Dzierżno",
    "lon": "18.5431",
    "lat": "50.3825"
  },
  {
    "id": "150180150",
    "station": "Pyskowice Dzierżno",
    "lon": "18.5433",
    "lat": "50.3797"
  },
  {
    "id": "149220110",
    "station": "Kalnica",
    "lon": "22.4292",
    "lat": "49.1889"
  },
  {
    "id": "151220080",
    "station": "Tchórzew",
    "lon": "22.5561",
    "lat": "51.6792"
  },
  {
    "id": "150240010",
    "station": "Strzyżów",
    "lon": "24.0358",
    "lat": "50.8394"
  },
  {
    "id": "154190160",
    "station": "Pierzchały",
    "lon": "19.8489",
    "lat": "54.3008"
  },
  {
    "id": "150180280",
    "station": "Rybnik Gotartowice",
    "lon": "18.6286",
    "lat": "50.0856"
  },
  {
    "id": "149210090",
    "station": "Krempna-Kotań",
    "lon": "21.4831",
    "lat": "49.5153"
  },
  {
    "id": "150230040",
    "station": "Krasnystaw",
    "lon": "23.1767",
    "lat": "50.9853"
  },
  {
    "id": "153220090",
    "station": "Czachy",
    "lon": "22.4461",
    "lat": "53.3781"
  },
  {
    "id": "153170100",
    "station": "Nakło-Zachód",
    "lon": "17.5622",
    "lat": "53.1236"
  },
  {
    "id": "153220180",
    "station": "Zawady",
    "lon": "22.6736",
    "lat": "53.1569"
  },
  {
    "id": "152180050",
    "station": "Sławsk",
    "lon": "18.1333",
    "lat": "52.1983"
  },
  {
    "id": "152140020",
    "station": "Gozdowice",
    "lon": "14.3178",
    "lat": "52.7642"
  },
  {
    "id": "152150010",
    "station": "Świerkocin",
    "lon": "14.9994",
    "lat": "52.6506"
  },
  {
    "id": "150170130",
    "station": "Ujście Nysy Kłodzkiej",
    "lon": "17.6611",
    "lat": "50.8183"
  },
  {
    "id": "151190080",
    "station": "Kłudzice",
    "lon": "19.7819",
    "lat": "51.3492"
  },
  {
    "id": "152140010",
    "station": "Bielinek",
    "lon": "14.1542",
    "lat": "52.9292"
  },
  {
    "id": "152150080",
    "station": "Santok 2",
    "lon": "15.3967",
    "lat": "52.7336"
  },
  {
    "id": "150190350",
    "station": "Januszewice",
    "lon": "19.9608",
    "lat": "50.9417"
  },
  {
    "id": "153230060",
    "station": "Zawady",
    "lon": "23.1067",
    "lat": "53.1603"
  },
  {
    "id": "150190160",
    "station": "Oświęcim",
    "lon": "19.2186",
    "lat": "50.04"
  },
  {
    "id": "150190310",
    "station": "Balice",
    "lon": "19.8067",
    "lat": "50.0931"
  },
  {
    "id": "149210040",
    "station": "Łabuzie",
    "lon": "21.3097",
    "lat": "49.9878"
  },
  {
    "id": "152150020",
    "station": "Stary Raduszec",
    "lon": "15.0786",
    "lat": "52.0364"
  },
  {
    "id": "152230200",
    "station": "Zabuże",
    "lon": "23.0489",
    "lat": "52.3175"
  },
  {
    "id": "152200010",
    "station": "Kęszyce",
    "lon": "20.1314",
    "lat": "52.1358"
  },
  {
    "id": "151190120",
    "station": "Dąbrowa",
    "lon": "19.9717",
    "lat": "51.3139"
  },
  {
    "id": "150150090",
    "station": "Łomnica",
    "lon": "15.8031",
    "lat": "50.8764"
  },
  {
    "id": "153220170",
    "station": "Osowiec",
    "lon": "22.6386",
    "lat": "53.4831"
  },
  {
    "id": "154150040",
    "station": "Bardy",
    "lon": "15.7139",
    "lat": "54.0917"
  },
  {
    "id": "150210210",
    "station": "Radomysl",
    "lon": "21.9308",
    "lat": "50.6736"
  },
  {
    "id": "150170120",
    "station": "Niemodlin",
    "lon": "17.6244",
    "lat": "50.6456"
  },
  {
    "id": "152210150",
    "station": "Popowo",
    "lon": "21.1756",
    "lat": "52.5281"
  },
  {
    "id": "149190060",
    "station": "Jawiszowice",
    "lon": "19.1219",
    "lat": "49.9725"
  },
  {
    "id": "150220070",
    "station": "Rzuchów",
    "lon": "22.5019",
    "lat": "50.2469"
  },
  {
    "id": "152190100",
    "station": "Bielawy",
    "lon": "19.65",
    "lat": "52.0736"
  },
  {
    "id": "151150080",
    "station": "Żagań",
    "lon": "15.3158",
    "lat": "51.6181"
  },
  {
    "id": "149200090",
    "station": "Dobczyce",
    "lon": "20.0861",
    "lat": "49.8836"
  },
  {
    "id": "152150040",
    "station": "Gorzów Wielkopolski",
    "lon": "15.2531",
    "lat": "52.73"
  },
  {
    "id": "150210190",
    "station": "Zawichost",
    "lon": "21.8631",
    "lat": "50.8058"
  },
  {
    "id": "149200140",
    "station": "Sromowce Wyżne",
    "lon": "20.3539",
    "lat": "49.4006"
  },
  {
    "id": "150210080",
    "station": "Nietulisko Duże",
    "lon": "21.2419",
    "lat": "50.9789"
  },
  {
    "id": "149210110",
    "station": "Krosno",
    "lon": "21.7747",
    "lat": "49.6939"
  },
  {
    "id": "149180230",
    "station": "Podkępie",
    "lon": "18.9775",
    "lat": "49.8956"
  },
  {
    "id": "153220230",
    "station": "Kulesze Chobotki",
    "lon": "22.7647",
    "lat": "53.2417"
  },
  {
    "id": "153180080",
    "station": "Chełmno",
    "lon": "18.415",
    "lat": "53.3631"
  },
  {
    "id": "150190170",
    "station": "Pustynia",
    "lon": "19.2364",
    "lat": "50.0633"
  },
  {
    "id": "151170050",
    "station": "Zbytowa",
    "lon": "17.4067",
    "lat": "51.1058"
  },
  {
    "id": "152230110",
    "station": "Bondary - Siemianówka",
    "lon": "23.7489",
    "lat": "52.9403"
  },
  {
    "id": "150140030",
    "station": "Turoszów",
    "lon": "14.9178",
    "lat": "50.9389"
  },
  {
    "id": "150210180",
    "station": "Annopol",
    "lon": "21.8322",
    "lat": "50.8992"
  },
  {
    "id": "149200110",
    "station": "Trybsz 2",
    "lon": "20.1175",
    "lat": "49.4178"
  },
  {
    "id": "153210190",
    "station": "Pisz",
    "lon": "21.8064",
    "lat": "53.6244"
  },
  {
    "id": "152180170",
    "station": "Popowo",
    "lon": "18.3736",
    "lat": "52.5772"
  },
  {
    "id": "150200020",
    "station": "Bocheniec",
    "lon": "20.3117",
    "lat": "50.8025"
  },
  {
    "id": "149200170",
    "station": "Proszówki",
    "lon": "20.4383",
    "lat": "49.9964"
  },
  {
    "id": "149200310",
    "station": "Grybów",
    "lon": "20.9458",
    "lat": "49.6239"
  },
  {
    "id": "149210140",
    "station": "Iskrzynia",
    "lon": "21.8644",
    "lat": "49.6772"
  },
  {
    "id": "153160210",
    "station": "Ptusza",
    "lon": "16.7964",
    "lat": "53.3667"
  },
  {
    "id": "154210100",
    "station": "Mieduniszki",
    "lon": "21.98",
    "lat": "54.3264"
  },
  {
    "id": "150160040",
    "station": "Kudowa Zdrój-Zakrze",
    "lon": "16.2439",
    "lat": "50.4308"
  },
  {
    "id": "153200090",
    "station": "Szypry",
    "lon": "20.5736",
    "lat": "53.8356"
  },
  {
    "id": "153180100",
    "station": "Grudziądz",
    "lon": "18.7453",
    "lat": "53.485"
  },
  {
    "id": "151190090",
    "station": "Przedbórz",
    "lon": "19.875",
    "lat": "51.0894"
  },
  {
    "id": "149180220",
    "station": "Pszczyna",
    "lon": "18.9458",
    "lat": "49.9792"
  },
  {
    "id": "154210070",
    "station": "Węgorzewo",
    "lon": "21.7308",
    "lat": "54.2267"
  },
  {
    "id": "152170080",
    "station": "Pyzdry",
    "lon": "17.6953",
    "lat": "52.1678"
  },
  {
    "id": "153170140",
    "station": "Smukała",
    "lon": "17.9631",
    "lat": "53.1881"
  },
  {
    "id": "152160070",
    "station": "Czarnków",
    "lon": "16.5542",
    "lat": "52.9083"
  },
  {
    "id": "153220190",
    "station": "Rajgród 2",
    "lon": "22.6997",
    "lat": "53.7328"
  },
  {
    "id": "150210200",
    "station": "Grębów",
    "lon": "21.9119",
    "lat": "50.5758"
  },
  {
    "id": "152180120",
    "station": "Koło",
    "lon": "18.6344",
    "lat": "52.1953"
  },
  {
    "id": "153170010",
    "station": "Białośliwie",
    "lon": "17.1247",
    "lat": "53.0736"
  },
  {
    "id": "153220140",
    "station": "Przechody",
    "lon": "22.5864",
    "lat": "53.555"
  },
  {
    "id": "149200260",
    "station": "Nowy Sącz 1",
    "lon": "20.7047",
    "lat": "49.6353"
  },
  {
    "id": "153160170",
    "station": "Ujście",
    "lon": "16.7303",
    "lat": "53.0547"
  },
  {
    "id": "152210090",
    "station": "Wyszków",
    "lon": "21.4528",
    "lat": "52.5883"
  },
  {
    "id": "149190100",
    "station": "Żywiec",
    "lon": "19.1933",
    "lat": "49.6864"
  },
  {
    "id": "149190050",
    "station": "Rajcza",
    "lon": "19.1164",
    "lat": "49.5139"
  },
  {
    "id": "152150140",
    "station": "Gościmiec",
    "lon": "15.6383",
    "lat": "52.7756"
  },
  {
    "id": "153220070",
    "station": "Wizna",
    "lon": "22.4086",
    "lat": "53.2011"
  },
  {
    "id": "152190120",
    "station": "Kępa Polska",
    "lon": "19.9633",
    "lat": "52.4314"
  },
  {
    "id": "152230070",
    "station": "Malowa Góra",
    "lon": "23.4675",
    "lat": "52.1036"
  },
  {
    "id": "152140070",
    "station": "Kostrzyn n. Odrą",
    "lon": "14.6622",
    "lat": "52.5819"
  },
  {
    "id": "153220260",
    "station": "Dębowo",
    "lon": "22.9303",
    "lat": "53.6097"
  },
  {
    "id": "154160070",
    "station": "Stary Kraków",
    "lon": "16.6064",
    "lat": "54.4422"
  },
  {
    "id": "149190350",
    "station": "Krzczonów",
    "lon": "19.9539",
    "lat": "49.7367"
  },
  {
    "id": "150220080",
    "station": "Tryńcza",
    "lon": "22.5472",
    "lat": "50.1622"
  },
  {
    "id": "151220090",
    "station": "Lubartów",
    "lon": "22.6436",
    "lat": "51.4981"
  },
  {
    "id": "152180030",
    "station": "Pakość",
    "lon": "18.0931",
    "lat": "52.8"
  },
  {
    "id": "149200160",
    "station": "Krościenko",
    "lon": "20.4294",
    "lat": "49.4417"
  },
  {
    "id": "154210080",
    "station": "Prynowo",
    "lon": "21.72",
    "lat": "54.2442"
  },
  {
    "id": "150190100",
    "station": "Niwka",
    "lon": "19.1608",
    "lat": "50.2358"
  },
  {
    "id": "150170040",
    "station": "Oława",
    "lon": "17.3064",
    "lat": "50.9464"
  },
  {
    "id": "152200020",
    "station": "Trzciniec",
    "lon": "20.1719",
    "lat": "52.9306"
  },
  {
    "id": "151160060",
    "station": "Głogów",
    "lon": "16.0592",
    "lat": "51.6739"
  },
  {
    "id": "149180250",
    "station": "Czechowice Dziedzice",
    "lon": "18.9864",
    "lat": "49.9136"
  },
  {
    "id": "152170010",
    "station": "Śrem",
    "lon": "17.0161",
    "lat": "52.0931"
  },
  {
    "id": "149190120",
    "station": "Czaniec (Kobiernice)",
    "lon": "19.2278",
    "lat": "49.8483"
  },
  {
    "id": "153180110",
    "station": "Brody Pomorskie",
    "lon": "18.7603",
    "lat": "53.8583"
  },
  {
    "id": "150160270",
    "station": "Kamieniec Ząbkowicki",
    "lon": "16.865",
    "lat": "50.5322"
  },
  {
    "id": "152210040",
    "station": "Warszawa - Nadwilanówka",
    "lon": "21.1039",
    "lat": "52.1928"
  },
  {
    "id": "150200090",
    "station": "Slowik",
    "lon": "20.5361",
    "lat": "50.8328"
  },
  {
    "id": "150200170",
    "station": "Żabno",
    "lon": "20.8619",
    "lat": "50.1319"
  },
  {
    "id": "149220060",
    "station": "Lesko",
    "lon": "22.3222",
    "lat": "49.4692"
  },
  {
    "id": "154220010",
    "station": "Banie Mazurskie",
    "lon": "22.0297",
    "lat": "54.2478"
  },
  {
    "id": "149200330",
    "station": "Ciężkowice",
    "lon": "20.9736",
    "lat": "49.7922"
  },
  {
    "id": "152140060",
    "station": "Kostrzyn n. Odrą",
    "lon": "14.6106",
    "lat": "52.5992"
  },
  {
    "id": "153230020",
    "station": "Karpowicze",
    "lon": "23.0433",
    "lat": "53.5853"
  },
  {
    "id": "153180020",
    "station": "Fordon",
    "lon": "18.17",
    "lat": "53.1464"
  },
  {
    "id": "152170060",
    "station": "Nowa Wieś Podgórna",
    "lon": "17.59",
    "lat": "52.1417"
  },
  {
    "id": "150200080",
    "station": "Pinczów",
    "lon": "20.5203",
    "lat": "50.5142"
  },
  {
    "id": "151180080",
    "station": "Sieradz",
    "lon": "18.7425",
    "lat": "51.5994"
  },
  {
    "id": "151170060",
    "station": "Bogdaj",
    "lon": "17.5642",
    "lat": "51.5161"
  },
  {
    "id": "152160100",
    "station": "Oborniki",
    "lon": "16.8136",
    "lat": "52.6436"
  },
  {
    "id": "154150010",
    "station": "Trzebiatów",
    "lon": "15.2608",
    "lat": "54.0633"
  },
  {
    "id": "151160150",
    "station": "Malczyce",
    "lon": "16.4928",
    "lat": "51.2261"
  },
  {
    "id": "149210130",
    "station": "Żarnowa",
    "lon": "21.8175",
    "lat": "49.8778"
  },
  {
    "id": "150210120",
    "station": "Mielec 2",
    "lon": "21.4303",
    "lat": "50.2792"
  },
  {
    "id": "153180090",
    "station": "Toruń",
    "lon": "18.6075",
    "lat": "53.0078"
  },
  {
    "id": "151220010",
    "station": "Kośmin",
    "lon": "22.0014",
    "lat": "51.5731"
  },
  {
    "id": "151160230",
    "station": "Ślęza",
    "lon": "16.985",
    "lat": "51.0375"
  },
  {
    "id": "150170180",
    "station": "Racławice Śląskie",
    "lon": "17.7889",
    "lat": "50.3153"
  },
  {
    "id": "150220160",
    "station": "Osuchy",
    "lon": "22.955",
    "lat": "50.3989"
  },
  {
    "id": "154190170",
    "station": "Łozy",
    "lon": "19.9508",
    "lat": "54.1947"
  },
  {
    "id": "149180210",
    "station": "Zabrzeg",
    "lon": "18.9353",
    "lat": "49.9253"
  },
  {
    "id": "149220180",
    "station": "Stuposiany",
    "lon": "22.6836",
    "lat": "49.1856"
  },
  {
    "id": "149200100",
    "station": "Łysa Polana",
    "lon": "20.115",
    "lat": "49.2636"
  },
  {
    "id": "153200040",
    "station": "Tomaryny",
    "lon": "20.2067",
    "lat": "53.7361"
  },
  {
    "id": "150230070",
    "station": "Gozdów",
    "lon": "23.8072",
    "lat": "50.7775"
  },
  {
    "id": "149220190",
    "station": "Przemyśl",
    "lon": "22.7672",
    "lat": "49.7847"
  },
  {
    "id": "152200090",
    "station": "Krubice",
    "lon": "20.4517",
    "lat": "52.2397"
  },
  {
    "id": "154180060",
    "station": "Goręczyno",
    "lon": "18.1647",
    "lat": "54.2636"
  },
  {
    "id": "153220130",
    "station": "Strękowa Góra",
    "lon": "22.5386",
    "lat": "53.2197"
  },
  {
    "id": "151210120",
    "station": "Dęblin",
    "lon": "21.8264",
    "lat": "51.5628"
  },
  {
    "id": "152210060",
    "station": "Zambski Kościelne",
    "lon": "21.2061",
    "lat": "52.7561"
  },
  {
    "id": "149210010",
    "station": "Ropa",
    "lon": "21.0464",
    "lat": "49.5858"
  },
  {
    "id": "152210030",
    "station": "Maków Mazowiecki",
    "lon": "21.1069",
    "lat": "52.8608"
  },
  {
    "id": "154210020",
    "station": "Prosna",
    "lon": "21.0867",
    "lat": "54.2336"
  },
  {
    "id": "153220100",
    "station": "Burzyn",
    "lon": "22.4592",
    "lat": "53.2742"
  },
  {
    "id": "150200150",
    "station": "Karsy",
    "lon": "20.7747",
    "lat": "50.275"
  },
  {
    "id": "153190120",
    "station": "Rodzone",
    "lon": "19.6597",
    "lat": "53.5222"
  },
  {
    "id": "151160220",
    "station": "Kanclerzowice",
    "lon": "16.9561",
    "lat": "51.4536"
  },
  {
    "id": "151210080",
    "station": "Kazanów",
    "lon": "21.4667",
    "lat": "51.2733"
  },
  {
    "id": "150200100",
    "station": "Popędzynka",
    "lon": "20.5494",
    "lat": "50.1414"
  },
  {
    "id": "153160020",
    "station": "Tychówko",
    "lon": "16.0653",
    "lat": "53.9006"
  },
  {
    "id": "152180110",
    "station": "Kościelec",
    "lon": "18.5753",
    "lat": "52.1753"
  },
  {
    "id": "152160140",
    "station": "Poznań Most Rocha",
    "lon": "16.9453",
    "lat": "52.4022"
  },
  {
    "id": "150200010",
    "station": "Mniszek",
    "lon": "20.285",
    "lat": "50.7275"
  },
  {
    "id": "151140050",
    "station": "Ręczyn",
    "lon": "14.98",
    "lat": "51.0431"
  },
  {
    "id": "151190100",
    "station": "Sulejów",
    "lon": "19.8861",
    "lat": "51.3436"
  },
  {
    "id": "150190360",
    "station": "Gromiec",
    "lon": "19.3822",
    "lat": "50.0356"
  },
  {
    "id": "152180060",
    "station": "Posoka",
    "lon": "18.2225",
    "lat": "52.2031"
  },
  {
    "id": "149190270",
    "station": "Radziszów",
    "lon": "19.8089",
    "lat": "49.94"
  },
  {
    "id": "150210160",
    "station": "Koprzywnica",
    "lon": "21.5731",
    "lat": "50.5958"
  },
  {
    "id": "152160050",
    "station": "Wronki",
    "lon": "16.38",
    "lat": "52.7117"
  },
  {
    "id": "152150050",
    "station": "Nietków",
    "lon": "15.3475",
    "lat": "52.0464"
  },
  {
    "id": "150210060",
    "station": "Staszów",
    "lon": "21.1731",
    "lat": "50.5564"
  },
  {
    "id": "149200050",
    "station": "Nowy Targ - Kowaniec",
    "lon": "20.0536",
    "lat": "49.4869"
  },
  {
    "id": "152190030",
    "station": "Włocławek",
    "lon": "19.0694",
    "lat": "52.6633"
  },
  {
    "id": "149180090",
    "station": "Borki Mizerów",
    "lon": "18.7686",
    "lat": "49.9986"
  },
  {
    "id": "153160180",
    "station": "Piła",
    "lon": "16.7397",
    "lat": "53.1514"
  },
  {
    "id": "152210020",
    "station": "Piaseczno",
    "lon": "21.0394",
    "lat": "52.0633"
  },
  {
    "id": "149200190",
    "station": "Gołkowice",
    "lon": "20.57",
    "lat": "49.5497"
  },
  {
    "id": "149220030",
    "station": "Olchowce",
    "lon": "22.2186",
    "lat": "49.5561"
  },
  {
    "id": "149200150",
    "station": "Tylmanowa",
    "lon": "20.3869",
    "lat": "49.5172"
  },
  {
    "id": "150190280",
    "station": "Wąsosz",
    "lon": "19.6828",
    "lat": "50.7511"
  },
  {
    "id": "151150130",
    "station": "Szprotawa 2",
    "lon": "15.5553",
    "lat": "51.5653"
  },
  {
    "id": "150180110",
    "station": "Ruda Kozielska",
    "lon": "18.4017",
    "lat": "50.2047"
  },
  {
    "id": "149190280",
    "station": "Koniówka",
    "lon": "19.8181",
    "lat": "49.3956"
  },
  {
    "id": "149180120",
    "station": "Górki Wielkie",
    "lon": "18.8525",
    "lat": "49.7725"
  },
  {
    "id": "151180170",
    "station": "Rogóźno",
    "lon": "18.9742",
    "lat": "51.4356"
  },
  {
    "id": "150160160",
    "station": "Mietków",
    "lon": "16.6506",
    "lat": "50.9683"
  },
  {
    "id": "150190190",
    "station": "Piwoń",
    "lon": "19.2533",
    "lat": "50.4831"
  },
  {
    "id": "152220080",
    "station": "Suraż",
    "lon": "22.955",
    "lat": "52.9489"
  },
  {
    "id": "150170060",
    "station": "Nysa",
    "lon": "17.3417",
    "lat": "50.4811"
  },
  {
    "id": "153210120",
    "station": "Walery",
    "lon": "21.6194",
    "lat": "53.1472"
  },
  {
    "id": "153230010",
    "station": "Fasty",
    "lon": "23.0267",
    "lat": "53.1786"
  },
  {
    "id": "153220050",
    "station": "Ełk 2",
    "lon": "22.3442",
    "lat": "53.8203"
  },
  {
    "id": "153190090",
    "station": "Nowe Miasto Lubawskie",
    "lon": "19.59",
    "lat": "53.4222"
  },
  {
    "id": "149210100",
    "station": "Zboiska",
    "lon": "21.6983",
    "lat": "49.5744"
  },
  {
    "id": "149200280",
    "station": "Zgłobice",
    "lon": "20.8797",
    "lat": "49.975"
  },
  {
    "id": "154200020",
    "station": "Krosno",
    "lon": "20.1728",
    "lat": "54.1308"
  },
  {
    "id": "153230110",
    "station": "Supraśl",
    "lon": "23.3383",
    "lat": "53.2125"
  },
  {
    "id": "154180270",
    "station": "Pruszcz Gdański",
    "lon": "18.6303",
    "lat": "54.25"
  },
  {
    "id": "152170130",
    "station": "Ląd",
    "lon": "17.8861",
    "lat": "52.2036"
  },
  {
    "id": "150170150",
    "station": "Karłowice (Wapienniki)",
    "lon": "17.7217",
    "lat": "50.8786"
  },
  {
    "id": "149190200",
    "station": "Sucha Beskidzka",
    "lon": "19.6011",
    "lat": "49.7433"
  },
  {
    "id": "149220130",
    "station": "Zatwarnica",
    "lon": "22.5631",
    "lat": "49.235"
  },
  {
    "id": "149190380",
    "station": "Zakopane Harenda",
    "lon": "19.9775",
    "lat": "49.3161"
  },
  {
    "id": "154210060",
    "station": "Przystań",
    "lon": "21.6503",
    "lat": "54.1908"
  },
  {
    "id": "149190290",
    "station": "Jordanów",
    "lon": "19.83",
    "lat": "49.6364"
  },
  {
    "id": "151140060",
    "station": "Zgorzelec",
    "lon": "14.9936",
    "lat": "51.1611"
  },
  {
    "id": "150210130",
    "station": "Pustków",
    "lon": "21.465",
    "lat": "50.1433"
  },
  {
    "id": "152140090",
    "station": "Biała Góra",
    "lon": "14.7272",
    "lat": "52.0933"
  },
  {
    "id": "151180100",
    "station": "Osjaków",
    "lon": "18.785",
    "lat": "51.2856"
  },
  {
    "id": "154180020",
    "station": "Miłoszewo",
    "lon": "18.0294",
    "lat": "54.44"
  },
  {
    "id": "152140050",
    "station": "Słubice",
    "lon": "14.5556",
    "lat": "52.3481"
  },
  {
    "id": "153180060",
    "station": "Krąplewice",
    "lon": "18.3808",
    "lat": "53.4894"
  },
  {
    "id": "150170010",
    "station": "Zborowice",
    "lon": "17.1706",
    "lat": "50.8056"
  },
  {
    "id": "151160140",
    "station": "Osetno",
    "lon": "16.4622",
    "lat": "51.6317"
  },
  {
    "id": "150160140",
    "station": "Dzierżoniów",
    "lon": "16.6461",
    "lat": "50.7258"
  },
  {
    "id": "153220080",
    "station": "Prostki",
    "lon": "22.4392",
    "lat": "53.7006"
  },
  {
    "id": "149180100",
    "station": "Skoczów",
    "lon": "18.7917",
    "lat": "49.8033"
  },
  {
    "id": "150190340",
    "station": "Kraków - Bielany",
    "lon": "19.8433",
    "lat": "50.0403"
  },
  {
    "id": "152220010",
    "station": "Zaliwie-Piegawki",
    "lon": "22.0947",
    "lat": "52.2531"
  },
  {
    "id": "154200010",
    "station": "Bornity",
    "lon": "20.0478",
    "lat": "54.1858"
  },
  {
    "id": "150220060",
    "station": "Gorliczyna",
    "lon": "22.4872",
    "lat": "50.0856"
  },
  {
    "id": "150210150",
    "station": "Koło",
    "lon": "21.5111",
    "lat": "50.5047"
  },
  {
    "id": "152230080",
    "station": "Krzyczew",
    "lon": "23.4992",
    "lat": "52.1469"
  },
  {
    "id": "150210220",
    "station": "Włochy",
    "lon": "21.1469",
    "lat": "50.9075"
  },
  {
    "id": "151210190",
    "station": "Puławy",
    "lon": "21.9456",
    "lat": "51.4453"
  },
  {
    "id": "152150100",
    "station": "Bledzew",
    "lon": "15.4211",
    "lat": "52.5175"
  },
  {
    "id": "149220040",
    "station": "Dynów",
    "lon": "22.2442",
    "lat": "49.8008"
  },
  {
    "id": "152150130",
    "station": "Cigacice",
    "lon": "15.6075",
    "lat": "52.0331"
  },
  {
    "id": "150190180",
    "station": "Jeleń",
    "lon": "19.2397",
    "lat": "50.1611"
  },
  {
    "id": "151180050",
    "station": "Dębe",
    "lon": "18.1978",
    "lat": "51.7914"
  },
  {
    "id": "151150030",
    "station": "Iłowa",
    "lon": "15.1983",
    "lat": "51.5031"
  },
  {
    "id": "149200220",
    "station": "Stary Sącz",
    "lon": "20.6597",
    "lat": "49.5686"
  },
  {
    "id": "150180170",
    "station": "Pyskowice",
    "lon": "18.5889",
    "lat": "50.3864"
  },
  {
    "id": "152150190",
    "station": "Nowe Drezdenko",
    "lon": "15.8375",
    "lat": "52.8508"
  },
  {
    "id": "151210060",
    "station": "Rogożek",
    "lon": "21.3586",
    "lat": "51.6356"
  },
  {
    "id": "150220140",
    "station": "Charytany",
    "lon": "22.9386",
    "lat": "50.0033"
  },
  {
    "id": "150190260",
    "station": "Smolice",
    "lon": "19.4603",
    "lat": "50.0311"
  },
  {
    "id": "151190040",
    "station": "Lutomiersk",
    "lon": "19.2214",
    "lat": "51.7564"
  },
  {
    "id": "153220280",
    "station": "Białobrzegi",
    "lon": "22.9664",
    "lat": "53.8042"
  },
  {
    "id": "150180020",
    "station": "Turawa",
    "lon": "18.0767",
    "lat": "50.7397"
  },
  {
    "id": "149180070",
    "station": "Cieszyn",
    "lon": "18.6314",
    "lat": "49.7461"
  },
  {
    "id": "151210040",
    "station": "Brody Iłżeckie",
    "lon": "21.2028",
    "lat": "51.0214"
  },
  {
    "id": "153210200",
    "station": "Maldanin",
    "lon": "21.8239",
    "lat": "53.6506"
  },
  {
    "id": "151200120",
    "station": "Białobrzegi",
    "lon": "20.9511",
    "lat": "51.6575"
  },
  {
    "id": "150170170",
    "station": "Branice 2",
    "lon": "17.7719",
    "lat": "50.0514"
  },
  {
    "id": "150210110",
    "station": "Głowaczowa",
    "lon": "21.3125",
    "lat": "50.0497"
  },
  {
    "id": "152230190",
    "station": "Białowieża",
    "lon": "23.8414",
    "lat": "52.7014"
  },
  {
    "id": "150220030",
    "station": "Nisko",
    "lon": "22.1928",
    "lat": "50.52"
  },
  {
    "id": "149210050",
    "station": "Krajowice",
    "lon": "21.4125",
    "lat": "49.7722"
  },
  {
    "id": "153140090",
    "station": "Goleniów",
    "lon": "14.8269",
    "lat": "53.5631"
  },
  {
    "id": "149220010",
    "station": "Nowosielce",
    "lon": "22.0708",
    "lat": "49.5669"
  },
  {
    "id": "152229999",
    "station": "Małkinia",
    "lon": "22.0161",
    "lat": "52.6742"
  },
  {
    "id": "150190010",
    "station": "Brynica",
    "lon": "19.0006",
    "lat": "50.4725"
  },
  {
    "id": "151190020",
    "station": "Szczerców",
    "lon": "19.1136",
    "lat": "51.3283"
  },
  {
    "id": "150170090",
    "station": "Brzeg (most)",
    "lon": "17.4694",
    "lat": "50.8656"
  },
  {
    "id": "151150040",
    "station": "Nowogród Bobrzański",
    "lon": "15.2369",
    "lat": "51.7986"
  },
  {
    "id": "153210220",
    "station": "Dobrylas",
    "lon": "21.8647",
    "lat": "53.2858"
  },
  {
    "id": "151150150",
    "station": "Nowa Sól",
    "lon": "15.7217",
    "lat": "51.8022"
  },
  {
    "id": "151150120",
    "station": "Szprotawa",
    "lon": "15.5267",
    "lat": "51.5614"
  },
  {
    "id": "152210100",
    "station": "Czarnowo",
    "lon": "21.5372",
    "lat": "52.8833"
  },
  {
    "id": "153180130",
    "station": "Kwidzyn",
    "lon": "18.9114",
    "lat": "53.7222"
  },
  {
    "id": "154210090",
    "station": "Giżycko",
    "lon": "21.7611",
    "lat": "54.0356"
  },
  {
    "id": "149220150",
    "station": "Dwernik",
    "lon": "22.6328",
    "lat": "49.2186"
  },
  {
    "id": "149200040",
    "station": "Kasinka Mała",
    "lon": "20.0325",
    "lat": "49.7047"
  },
  {
    "id": "149190140",
    "station": "Łękawica",
    "lon": "19.2622",
    "lat": "49.7117"
  },
  {
    "id": "151150090",
    "station": "Łozy",
    "lon": "15.3686",
    "lat": "51.4914"
  },
  {
    "id": "149200230",
    "station": "Czchów",
    "lon": "20.6819",
    "lat": "49.8164"
  },
  {
    "id": "153210170",
    "station": "Ptaki",
    "lon": "21.7922",
    "lat": "53.3931"
  },
  {
    "id": "151150050",
    "station": "Dobroszów Wielki",
    "lon": "15.2561",
    "lat": "51.7742"
  },
  {
    "id": "149190230",
    "station": "Czernichów - Prom",
    "lon": "19.6631",
    "lat": "49.9814"
  },
  {
    "id": "149210160",
    "station": "Sieniawa",
    "lon": "21.93",
    "lat": "49.5678"
  },
  {
    "id": "150180070",
    "station": "Lenartowice",
    "lon": "18.2356",
    "lat": "50.3575"
  },
  {
    "id": "151150100",
    "station": "Nowogrodziec",
    "lon": "15.3958",
    "lat": "51.2031"
  },
  {
    "id": "150210020",
    "station": "Szczucin",
    "lon": "21.0772",
    "lat": "50.3269"
  },
  {
    "id": "151160100",
    "station": "Piątnica",
    "lon": "16.1992",
    "lat": "51.2278"
  },
  {
    "id": "152200120",
    "station": "Borkowo",
    "lon": "20.6656",
    "lat": "52.5617"
  },
  {
    "id": "150220040",
    "station": "Sarzyna",
    "lon": "22.3475",
    "lat": "50.3272"
  },
  {
    "id": "149200120",
    "station": "Niedzica",
    "lon": "20.3022",
    "lat": "49.4114"
  },
  {
    "id": "150220090",
    "station": "Leżachów",
    "lon": "22.6031",
    "lat": "50.1403"
  },
  {
    "id": "153150010",
    "station": "Stargard",
    "lon": "15.0408",
    "lat": "53.3503"
  },
  {
    "id": "149200030",
    "station": "Nowy Targ",
    "lon": "20.0311",
    "lat": "49.4844"
  },
  {
    "id": "149220050",
    "station": "Zagórz",
    "lon": "22.2689",
    "lat": "49.5133"
  },
  {
    "id": "150180210",
    "station": "Niwki",
    "lon": "18.6625",
    "lat": "50.8208"
  },
  {
    "id": "149180300",
    "station": "Olza",
    "lon": "18.3264",
    "lat": "49.9547"
  },
  {
    "id": "150160070",
    "station": "Lubachów",
    "lon": "16.4311",
    "lat": "50.7658"
  },
  {
    "id": "149190020",
    "station": "Kamesznica",
    "lon": "19.0697",
    "lat": "49.5681"
  },
  {
    "id": "150170200",
    "station": "Domaradz",
    "lon": "17.8644",
    "lat": "50.9542"
  },
  {
    "id": "152160110",
    "station": "Kowanówko",
    "lon": "16.8367",
    "lat": "52.6686"
  },
  {
    "id": "150200120",
    "station": "Morawica",
    "lon": "20.6167",
    "lat": "50.7503"
  },
  {
    "id": "151150170",
    "station": "Świerzawa",
    "lon": "15.8878",
    "lat": "51.0178"
  },
  {
    "id": "151160200",
    "station": "Korzeńsko",
    "lon": "16.8725",
    "lat": "51.5392"
  },
  {
    "id": "152230100",
    "station": "Narewka",
    "lon": "23.7253",
    "lat": "52.8631"
  },
  {
    "id": "149220070",
    "station": "Hoczew",
    "lon": "22.3283",
    "lat": "49.4239"
  },
  {
    "id": "150160120",
    "station": "Krasków",
    "lon": "16.5839",
    "lat": "50.9156"
  },
  {
    "id": "153230170",
    "station": "Nowosiółki",
    "lon": "23.53",
    "lat": "53.1733"
  },
  {
    "id": "150190130",
    "station": "Łagisza",
    "lon": "19.1856",
    "lat": "50.3503"
  },
  {
    "id": "154200030",
    "station": "Smolajny",
    "lon": "20.3969",
    "lat": "54.0258"
  },
  {
    "id": "149180130",
    "station": "Istebna",
    "lon": "18.8928",
    "lat": "49.5719"
  },
  {
    "id": "151180160",
    "station": "Poddębice",
    "lon": "18.9494",
    "lat": "51.8917"
  },
  {
    "id": "150170030",
    "station": "Oława 2",
    "lon": "17.2928",
    "lat": "50.9478"
  },
  {
    "id": "151180060",
    "station": "Kraszewice",
    "lon": "18.225",
    "lat": "51.5192"
  },
  {
    "id": "151180180",
    "station": "Grabno",
    "lon": "18.9853",
    "lat": "51.4583"
  },
  {
    "id": "149180080",
    "station": "Drogomyśl",
    "lon": "18.7494",
    "lat": "49.8858"
  },
  {
    "id": "149210150",
    "station": "Puławy",
    "lon": "21.9067",
    "lat": "49.49"
  },
  {
    "id": "151200100",
    "station": "Bzin",
    "lon": "20.8556",
    "lat": "51.1036"
  },
  {
    "id": "152210120",
    "station": "Łochów",
    "lon": "21.6783",
    "lat": "52.51"
  },
  {
    "id": "152230030",
    "station": "Chraboły",
    "lon": "23.1958",
    "lat": "52.8622"
  },
  {
    "id": "149200010",
    "station": "Poronin",
    "lon": "20.0031",
    "lat": "49.3372"
  },
  {
    "id": "151180040",
    "station": "Mirków",
    "lon": "18.1547",
    "lat": "51.3156"
  },
  {
    "id": "153220060",
    "station": "Ełk",
    "lon": "22.3833",
    "lat": "53.8317"
  },
  {
    "id": "149210080",
    "station": "Jasło",
    "lon": "21.4731",
    "lat": "49.7503"
  },
  {
    "id": "150180010",
    "station": "Kamionka",
    "lon": "18.0425",
    "lat": "50.3911"
  },
  {
    "id": "150210100",
    "station": "Połaniec",
    "lon": "21.285",
    "lat": "50.4347"
  },
  {
    "id": "150180130",
    "station": "Rybnik Stodoły",
    "lon": "18.4831",
    "lat": "50.1542"
  },
  {
    "id": "151170090",
    "station": "Namysłów",
    "lon": "17.71",
    "lat": "51.0803"
  },
  {
    "id": "152150200",
    "station": "Międzychód",
    "lon": "15.8861",
    "lat": "52.6042"
  },
  {
    "id": "149180030",
    "station": "Łaziska",
    "lon": "18.4431",
    "lat": "49.9244"
  },
  {
    "id": "150160030",
    "station": "Chwaliszów",
    "lon": "16.2331",
    "lat": "50.8778"
  },
  {
    "id": "150170050",
    "station": "Biała Nyska",
    "lon": "17.2975",
    "lat": "50.4336"
  },
  {
    "id": "150190330",
    "station": "Ojców",
    "lon": "19.8325",
    "lat": "50.1947"
  },
  {
    "id": "151200080",
    "station": "Odrzywół",
    "lon": "20.5628",
    "lat": "51.5194"
  },
  {
    "id": "150160020",
    "station": "Świebodzice",
    "lon": "16.3136",
    "lat": "50.8603"
  },
  {
    "id": "149190010",
    "station": "Czechowice-Bestwina",
    "lon": "19.0303",
    "lat": "49.8914"
  },
  {
    "id": "154170160",
    "station": "Lębork",
    "lon": "17.7475",
    "lat": "54.5419"
  },
  {
    "id": "154220110",
    "station": "Gołdap 2",
    "lon": "22.3119",
    "lat": "54.3128"
  },
  {
    "id": "153190050",
    "station": "Brodnica",
    "lon": "19.4008",
    "lat": "53.2553"
  },
  {
    "id": "154210010",
    "station": "Sępopol",
    "lon": "21.0058",
    "lat": "54.2661"
  },
  {
    "id": "153160040",
    "station": "Czaplinek",
    "lon": "16.2261",
    "lat": "53.5608"
  },
  {
    "id": "150210010",
    "station": "Raków",
    "lon": "21.0286",
    "lat": "50.6761"
  },
  {
    "id": "149200290",
    "station": "Muszyna",
    "lon": "20.8853",
    "lat": "49.35"
  },
  {
    "id": "153200020",
    "station": "Szreńsk",
    "lon": "20.1283",
    "lat": "53.0097"
  },
  {
    "id": "150200160",
    "station": "Daleszyce",
    "lon": "20.8131",
    "lat": "50.8008"
  },
  {
    "id": "150190210",
    "station": "Kuźnica Sulikowska",
    "lon": "19.2728",
    "lat": "50.4531"
  },
  {
    "id": "150200050",
    "station": "Michałów",
    "lon": "20.4564",
    "lat": "50.4917"
  },
  {
    "id": "150160110",
    "station": "Szalejów Dolny",
    "lon": "16.6047",
    "lat": "50.4197"
  },
  {
    "id": "151150020",
    "station": "Ostróżno",
    "lon": "15.0328",
    "lat": "51.0208"
  },
  {
    "id": "149190160",
    "station": "Rudze",
    "lon": "19.4425",
    "lat": "49.9617"
  },
  {
    "id": "150160190",
    "station": "Międzylesie",
    "lon": "16.6642",
    "lat": "50.1556"
  },
  {
    "id": "150220120",
    "station": "Zakłodzie",
    "lon": "22.86",
    "lat": "50.7575"
  },
  {
    "id": "150150020",
    "station": "Mirsk 2",
    "lon": "15.3839",
    "lat": "50.9867"
  },
  {
    "id": "150160080",
    "station": "Tłumaczów",
    "lon": "16.4361",
    "lat": "50.5519"
  },
  {
    "id": "150200040",
    "station": "Tokarnia",
    "lon": "20.4531",
    "lat": "50.7742"
  },
  {
    "id": "153220200",
    "station": "Rajgród",
    "lon": "22.7017",
    "lat": "53.7306"
  },
  {
    "id": "150210040",
    "station": "Rzepin",
    "lon": "21.0919",
    "lat": "50.9728"
  },
  {
    "id": "152210010",
    "station": "Warszawa",
    "lon": "21.0325",
    "lat": "52.2475"
  },
  {
    "id": "150210170",
    "station": "Sandomierz",
    "lon": "21.7461",
    "lat": "50.6725"
  },
  {
    "id": "150190060",
    "station": "Bojszowy",
    "lon": "19.1083",
    "lat": "50.0611"
  },
  {
    "id": "149180110",
    "station": "Ustroń Obłaziec",
    "lon": "18.8503",
    "lat": "49.6806"
  },
  {
    "id": "149200020",
    "station": "Szaflary",
    "lon": "20.0247",
    "lat": "49.4242"
  },
  {
    "id": "149190030",
    "station": "Mikuszowice",
    "lon": "19.0742",
    "lat": "49.7794"
  },
  {
    "id": "150180060",
    "station": "Racibórz Miedonia",
    "lon": "18.2297",
    "lat": "50.1219"
  },
  {
    "id": "149180140",
    "station": "Wisła",
    "lon": "18.9008",
    "lat": "49.6319"
  },
  {
    "id": "152180150",
    "station": "Dąbie",
    "lon": "18.8239",
    "lat": "52.0847"
  },
  {
    "id": "152190050",
    "station": "Kwiatkówek",
    "lon": "19.2175",
    "lat": "52.0625"
  },
  {
    "id": "150200140",
    "station": "Borzęcin",
    "lon": "20.7056",
    "lat": "50.065"
  },
  {
    "id": "152160090",
    "station": "Kościan",
    "lon": "16.6442",
    "lat": "52.09"
  },
  {
    "id": "152200050",
    "station": "Żuków",
    "lon": "20.2692",
    "lat": "52.2617"
  },
  {
    "id": "151160020",
    "station": "Rzymówka",
    "lon": "16.0256",
    "lat": "51.1394"
  },
  {
    "id": "152200130",
    "station": "Orzechowo",
    "lon": "20.8644",
    "lat": "52.4881"
  },
  {
    "id": "151160050",
    "station": "Dunino",
    "lon": "16.0772",
    "lat": "51.1569"
  },
  {
    "id": "149190210",
    "station": "Sucha Beskidzka 2",
    "lon": "19.6086",
    "lat": "49.7394"
  },
  {
    "id": "150160090",
    "station": "Łażany",
    "lon": "16.4925",
    "lat": "50.9531"
  },
  {
    "id": "153210180",
    "station": "Zaruzie",
    "lon": "21.8003",
    "lat": "53.1483"
  },
  {
    "id": "151150110",
    "station": "Gryfów Śląski",
    "lon": "15.4131",
    "lat": "51.0264"
  },
  {
    "id": "153200070",
    "station": "Olsztyn",
    "lon": "20.4717",
    "lat": "53.7564"
  },
  {
    "id": "149200060",
    "station": "Mszana Dolna",
    "lon": "20.0592",
    "lat": "49.6581"
  },
  {
    "id": "154170010",
    "station": "Słupsk",
    "lon": "17.0314",
    "lat": "54.47"
  },
  {
    "id": "149200480",
    "station": "Łapanów",
    "lon": "20.2939",
    "lat": "49.8644"
  },
  {
    "id": "154150050",
    "station": "Białogard",
    "lon": "15.9764",
    "lat": "54.0031"
  },
  {
    "id": "151160130",
    "station": "Ścinawa",
    "lon": "16.4433",
    "lat": "51.4089"
  },
  {
    "id": "150220050",
    "station": "Harasiuki",
    "lon": "22.4742",
    "lat": "50.4775"
  },
  {
    "id": "151230040",
    "station": "Włodawa",
    "lon": "23.5664",
    "lat": "51.5514"
  },
  {
    "id": "149200320",
    "station": "Koszyce Wielkie",
    "lon": "20.9494",
    "lat": "49.9972"
  },
  {
    "id": "151160190",
    "station": "Jarnołtów",
    "lon": "16.8428",
    "lat": "51.1217"
  },
  {
    "id": "149210030",
    "station": "Klęczany",
    "lon": "21.2167",
    "lat": "49.7014"
  },
  {
    "id": "151220100",
    "station": "Sobianowice",
    "lon": "22.6881",
    "lat": "51.3017"
  },
  {
    "id": "149190300",
    "station": "Kościelisko-Kiry",
    "lon": "19.8681",
    "lat": "49.2758"
  },
  {
    "id": "151190010",
    "station": "Kule",
    "lon": "19.0481",
    "lat": "51.0428"
  },
  {
    "id": "151180150",
    "station": "Widawa",
    "lon": "18.9467",
    "lat": "51.4383"
  },
  {
    "id": "152140130",
    "station": "Połęcko",
    "lon": "14.8922",
    "lat": "52.0525"
  },
  {
    "id": "149220100",
    "station": "Terka",
    "lon": "22.4292",
    "lat": "49.2997"
  },
  {
    "id": "149190090",
    "station": "Żabnica",
    "lon": "19.1803",
    "lat": "49.5647"
  },
  {
    "id": "150170160",
    "station": "Branice 1",
    "lon": "17.7694",
    "lat": "50.0511"
  },
  {
    "id": "150190200",
    "station": "Lgota Nadwarcie",
    "lon": "19.2594",
    "lat": "50.6183"
  },
  {
    "id": "150160280",
    "station": "Borów",
    "lon": "16.9906",
    "lat": "50.8889"
  },
  {
    "id": "149190180",
    "station": "Wadowice",
    "lon": "19.5111",
    "lat": "49.8772"
  },
  {
    "id": "150160180",
    "station": "Kłodzko",
    "lon": "16.6586",
    "lat": "50.4425"
  },
  {
    "id": "151180120",
    "station": "Burzenin",
    "lon": "18.8378",
    "lat": "51.4583"
  },
  {
    "id": "149190260",
    "station": "Osielec",
    "lon": "19.7392",
    "lat": "49.6833"
  },
  {
    "id": "153210090",
    "station": "Ostrołęka",
    "lon": "21.5628",
    "lat": "53.0839"
  },
  {
    "id": "150210140",
    "station": "Brzeźnica",
    "lon": "21.4869",
    "lat": "50.1064"
  },
  {
    "id": "151170080",
    "station": "Odolanów 2",
    "lon": "17.6703",
    "lat": "51.5783"
  },
  {
    "id": "153170120",
    "station": "Tuchola",
    "lon": "17.9036",
    "lat": "53.5731"
  },
  {
    "id": "151160160",
    "station": "Rydzyna",
    "lon": "16.6689",
    "lat": "51.7828"
  },
  {
    "id": "153180030",
    "station": "Bożepole",
    "lon": "18.2311",
    "lat": "53.9764"
  },
  {
    "id": "149220080",
    "station": "Cisna",
    "lon": "22.3333",
    "lat": "49.2131"
  },
  {
    "id": "149200250",
    "station": "Nowy Sącz",
    "lon": "20.6958",
    "lat": "49.6253"
  },
  {
    "id": "149200240",
    "station": "Nowy Sącz",
    "lon": "20.6872",
    "lat": "49.6272"
  },
  {
    "id": "150200030",
    "station": "Brzegi",
    "lon": "20.4139",
    "lat": "50.7419"
  },
  {
    "id": "152180140",
    "station": "Grzegorzew",
    "lon": "18.7428",
    "lat": "52.2"
  },
  {
    "id": "150170110",
    "station": "Prudnik",
    "lon": "17.5886",
    "lat": "50.3194"
  },
  {
    "id": "152170120",
    "station": "Samarzewo",
    "lon": "17.7431",
    "lat": "52.2233"
  },
  {
    "id": "151140040",
    "station": "Przewóz",
    "lon": "14.9469",
    "lat": "51.4722"
  },
  {
    "id": "149180240",
    "station": "Goczałkowice",
    "lon": "18.9858",
    "lat": "49.9317"
  },
  {
    "id": "153190150",
    "station": "Lidzbark",
    "lon": "19.8186",
    "lat": "53.2667"
  },
  {
    "id": "150150120",
    "station": "Bukówka",
    "lon": "15.9575",
    "lat": "50.7128"
  },
  {
    "id": "151180090",
    "station": "Niechmirów",
    "lon": "18.7622",
    "lat": "51.3881"
  },
  {
    "id": "150200060",
    "station": "Sierosławice",
    "lon": "20.4567",
    "lat": "50.1319"
  },
  {
    "id": "149180020",
    "station": "Chałupki",
    "lon": "18.3278",
    "lat": "49.9219"
  },
  {
    "id": "151190060",
    "station": "Bobry",
    "lon": "19.4053",
    "lat": "51.0253"
  },
  {
    "id": "149190080",
    "station": "Cięcina",
    "lon": "19.1489",
    "lat": "49.6247"
  },
  {
    "id": "151140010",
    "station": "Gubin",
    "lon": "14.7069",
    "lat": "51.9719"
  },
  {
    "id": "150240020",
    "station": "Kryłów",
    "lon": "24.0625",
    "lat": "50.6772"
  },
  {
    "id": "153210210",
    "station": "Nowogród",
    "lon": "21.8653",
    "lat": "53.2267"
  },
  {
    "id": "151150160",
    "station": "Zagrodno",
    "lon": "15.8639",
    "lat": "51.1889"
  },
  {
    "id": "149180200",
    "station": "Wisła Czarne",
    "lon": "18.9261",
    "lat": "49.6075"
  },
  {
    "id": "150150080",
    "station": "Jelenia Góra",
    "lon": "15.7214",
    "lat": "50.9108"
  },
  {
    "id": "152160120",
    "station": "Ryczywół",
    "lon": "16.8394",
    "lat": "52.8158"
  },
  {
    "id": "151160080",
    "station": "Rzeszotary",
    "lon": "16.1447",
    "lat": "51.2489"
  },
  {
    "id": "151170040",
    "station": "Łąki",
    "lon": "17.1464",
    "lat": "51.4931"
  },
  {
    "id": "151180020",
    "station": "Piwonice",
    "lon": "18.1072",
    "lat": "51.7267"
  },
  {
    "id": "149190150",
    "station": "Pewel Mała",
    "lon": "19.3056",
    "lat": "49.6586"
  },
  {
    "id": "152220050",
    "station": "Frankopol",
    "lon": "22.5608",
    "lat": "52.415"
  },
  {
    "id": "149200080",
    "station": "Mszana Dolna",
    "lon": "20.0794",
    "lat": "49.6747"
  },
  {
    "id": "149190040",
    "station": "Ujsoły",
    "lon": "19.1172",
    "lat": "49.4925"
  },
  {
    "id": "150160210",
    "station": "Wilkanów",
    "lon": "16.6622",
    "lat": "50.2653"
  },
  {
    "id": "150180220",
    "station": "Gliwice",
    "lon": "18.6683",
    "lat": "50.2981"
  },
  {
    "id": "151180070",
    "station": "Gorzów Śląski",
    "lon": "18.4344",
    "lat": "51.0353"
  },
  {
    "id": "149180010",
    "station": "Krzyżanowice",
    "lon": "18.2872",
    "lat": "49.9936"
  },
  {
    "id": "150210090",
    "station": "Kunów",
    "lon": "21.2789",
    "lat": "50.9619"
  },
  {
    "id": "151190030",
    "station": "Łask",
    "lon": "19.1219",
    "lat": "51.5969"
  },
  {
    "id": "150150100",
    "station": "Wojanów",
    "lon": "15.8269",
    "lat": "50.8703"
  },
  {
    "id": "151150140",
    "station": "Dąbrowa Bolesławiecka",
    "lon": "15.5706",
    "lat": "51.3258"
  },
  {
    "id": "151160180",
    "station": "Bogdaszowice",
    "lon": "16.7925",
    "lat": "51.0867"
  },
  {
    "id": "153200030",
    "station": "Kalisty",
    "lon": "20.1958",
    "lat": "53.9172"
  },
  {
    "id": "152230090",
    "station": "Narew",
    "lon": "23.5228",
    "lat": "52.9158"
  },
  {
    "id": "152150240",
    "station": "Drawiny",
    "lon": "15.9778",
    "lat": "52.8856"
  },
  {
    "id": "152160010",
    "station": "Krzyż",
    "lon": "16.0017",
    "lat": "52.8617"
  },
  {
    "id": "153210070",
    "station": "Białobrzeg Bliższy",
    "lon": "21.4786",
    "lat": "53.1083"
  },
  {
    "id": "149190340",
    "station": "Rabka 2",
    "lon": "19.9489",
    "lat": "49.6136"
  },
  {
    "id": "149220200",
    "station": "Krówniki",
    "lon": "22.8231",
    "lat": "49.7669"
  },
  {
    "id": "150220110",
    "station": "Biłgoraj",
    "lon": "22.7153",
    "lat": "50.5422"
  },
  {
    "id": "149190370",
    "station": "Lubień",
    "lon": "19.9783",
    "lat": "49.7197"
  },
  {
    "id": "150160220",
    "station": "Bardo Śląskie",
    "lon": "16.7397",
    "lat": "50.5044"
  },
  {
    "id": "152150090",
    "station": "Santok",
    "lon": "15.4178",
    "lat": "52.7392"
  },
  {
    "id": "150170080",
    "station": "Jarnołtówek",
    "lon": "17.4281",
    "lat": "50.2858"
  },
  {
    "id": "150150130",
    "station": "Błażkowa",
    "lon": "15.9864",
    "lat": "50.7394"
  },
  {
    "id": "154190110",
    "station": "Nowe Sadłuki",
    "lon": "19.7117",
    "lat": "54.2603"
  },
  {
    "id": "149220020",
    "station": "Szczawne",
    "lon": "22.1503",
    "lat": "49.4036"
  },
  {
    "id": "150170220",
    "station": "Dobra",
    "lon": "17.8969",
    "lat": "50.4481"
  },
  {
    "id": "151170010",
    "station": "Krzyżanowice",
    "lon": "17.0475",
    "lat": "51.1711"
  },
  {
    "id": "153230080",
    "station": "Sochonie",
    "lon": "23.1806",
    "lat": "53.2169"
  },
  {
    "id": "150190140",
    "station": "Bieruń Nowy",
    "lon": "19.1936",
    "lat": "50.0647"
  },
  {
    "id": "151230060",
    "station": "Dorohusk",
    "lon": "23.8078",
    "lat": "51.185"
  },
  {
    "id": "149180180",
    "station": "Wisła Czarne",
    "lon": "18.9356",
    "lat": "49.6181"
  },
  {
    "id": "154160020",
    "station": "Białogórzyno",
    "lon": "16.1167",
    "lat": "54.0625"
  },
  {
    "id": "149200270",
    "station": "Łabowa",
    "lon": "20.8589",
    "lat": "49.5264"
  },
  {
    "id": "151150070",
    "station": "Żagań",
    "lon": "15.2897",
    "lat": "51.6139"
  },
  {
    "id": "150150190",
    "station": "Podgórzyn",
    "lon": "15.6836",
    "lat": "50.8203"
  },
  {
    "id": "153180140",
    "station": "Elgiszewo",
    "lon": "18.9281",
    "lat": "53.0608"
  },
  {
    "id": "151180010",
    "station": "Ołobok",
    "lon": "18.0689",
    "lat": "51.6394"
  },
  {
    "id": "153230070",
    "station": "Sztabin",
    "lon": "23.1164",
    "lat": "53.6719"
  },
  {
    "id": "152210070",
    "station": "Wólka Mlądzka",
    "lon": "21.3303",
    "lat": "52.1392"
  },
  {
    "id": "150210070",
    "station": "Wampierzów",
    "lon": "21.2308",
    "lat": "50.2994"
  },
  {
    "id": "153190130",
    "station": "Kuligi (Nowe Miasto)",
    "lon": "19.6908",
    "lat": "53.4297"
  },
  {
    "id": "150150050",
    "station": "Piechowice",
    "lon": "15.5883",
    "lat": "50.85"
  },
  {
    "id": "150160200",
    "station": "Żelazno",
    "lon": "16.6739",
    "lat": "50.3731"
  },
  {
    "id": "149180160",
    "station": "Wisła Czarne",
    "lon": "18.9186",
    "lat": "49.6189"
  },
  {
    "id": "153160300",
    "station": "Wielimie",
    "lon": "16.7861",
    "lat": "53.7458"
  },
  {
    "id": "150190120",
    "station": "Przeczyce",
    "lon": "19.1778",
    "lat": "50.4272"
  },
  {
    "id": "149190220",
    "station": "Skawica Dolna",
    "lon": "19.6636",
    "lat": "49.6861"
  },
  {
    "id": "149190390",
    "station": "Ludźmierz",
    "lon": "19.9867",
    "lat": "49.4594"
  },
  {
    "id": "150220010",
    "station": "Rzeszów",
    "lon": "22.0156",
    "lat": "50.0397"
  },
  {
    "id": "150160010",
    "station": "Kamienna Góra",
    "lon": "16.0361",
    "lat": "50.7864"
  },
  {
    "id": "150220130",
    "station": "Zapałów",
    "lon": "22.89",
    "lat": "50.1006"
  },
  {
    "id": "149220210",
    "station": "Nienowice",
    "lon": "22.9169",
    "lat": "49.9378"
  },
  {
    "id": "150150070",
    "station": "Jelenia Góra 2",
    "lon": "15.7222",
    "lat": "50.8986"
  },
  {
    "id": "154180080",
    "station": "Wejherowo",
    "lon": "18.225",
    "lat": "54.6133"
  },
  {
    "id": "150140020",
    "station": "Sieniawka",
    "lon": "14.8369",
    "lat": "50.8964"
  },
  {
    "id": "149200200",
    "station": "Jakubkowice",
    "lon": "20.63",
    "lat": "49.7394"
  },
  {
    "id": "150170100",
    "station": "Kopice",
    "lon": "17.4783",
    "lat": "50.6456"
  },
  {
    "id": "149210060",
    "station": "Topoliny",
    "lon": "21.4433",
    "lat": "49.7247"
  },
  {
    "id": "150190150",
    "station": "Poraj",
    "lon": "19.2039",
    "lat": "50.6733"
  },
  {
    "id": "151210050",
    "station": "Gusin",
    "lon": "21.2544",
    "lat": "51.8928"
  },
  {
    "id": "153140200",
    "station": "Morzyczyn",
    "lon": "14.9164",
    "lat": "53.3514"
  },
  {
    "id": "153180010",
    "station": "Czarna Woda",
    "lon": "18.0928",
    "lat": "53.8411"
  },
  {
    "id": "150230080",
    "station": "Michałów",
    "lon": "23.0206",
    "lat": "50.7342"
  },
  {
    "id": "150180040",
    "station": "Bojanów",
    "lon": "18.1542",
    "lat": "50.0306"
  },
  {
    "id": "154220050",
    "station": "Jurkiszki",
    "lon": "22.3681",
    "lat": "54.3092"
  },
  {
    "id": "151210090",
    "station": "Czekarzewice",
    "lon": "21.6814",
    "lat": "51.0331"
  },
  {
    "id": "150160230",
    "station": "Lądek Zdrój",
    "lon": "16.8703",
    "lat": "50.3467"
  },
  {
    "id": "150140100",
    "station": "Bogatynia",
    "lon": "14.995",
    "lat": "50.8922"
  },
  {
    "id": "149200130",
    "station": "Stradomka",
    "lon": "20.3083",
    "lat": "49.9206"
  },
  {
    "id": "150180100",
    "station": "Staniszcze Wielkie",
    "lon": "18.3425",
    "lat": "50.6633"
  },
  {
    "id": "151200090",
    "station": "Nowe Miasto/Pilicą",
    "lon": "20.5733",
    "lat": "51.6092"
  },
  {
    "id": "151150180",
    "station": "Chojnów",
    "lon": "15.9456",
    "lat": "51.2728"
  },
  {
    "id": "152220070",
    "station": "Brańsk",
    "lon": "22.8186",
    "lat": "52.7439"
  },
  {
    "id": "151210020",
    "station": "Michałów 2",
    "lon": "21.1011",
    "lat": "51.0117"
  },
  {
    "id": "154170080",
    "station": "Łupawa",
    "lon": "17.4156",
    "lat": "54.4194"
  },
  {
    "id": "150190080",
    "station": "Radocha",
    "lon": "19.1403",
    "lat": "50.2608"
  },
  {
    "id": "149190170",
    "station": "Zator",
    "lon": "19.4456",
    "lat": "49.9992"
  },
  {
    "id": "153170040",
    "station": "Wyrzysk",
    "lon": "17.2708",
    "lat": "53.1508"
  },
  {
    "id": "150170070",
    "station": "Głuchołazy",
    "lon": "17.38",
    "lat": "50.3164"
  },
  {
    "id": "150220100",
    "station": "Jarosław",
    "lon": "22.7028",
    "lat": "50.0211"
  },
  {
    "id": "154160120",
    "station": "Korzybie",
    "lon": "16.8783",
    "lat": "54.2806"
  },
  {
    "id": "150160100",
    "station": "Gorzuchów",
    "lon": "16.5711",
    "lat": "50.4853"
  },
  {
    "id": "150160150",
    "station": "Bystrzyca Kłodzka 2",
    "lon": "16.6486",
    "lat": "50.2964"
  },
  {
    "id": "151150060",
    "station": "Leśna",
    "lon": "15.2867",
    "lat": "51.0283"
  },
  {
    "id": "150180050",
    "station": "Ozimek",
    "lon": "18.2039",
    "lat": "50.6792"
  },
  {
    "id": "151160070",
    "station": "Winnica",
    "lon": "16.0936",
    "lat": "51.1117"
  },
  {
    "id": "150160290",
    "station": "Gniechowice",
    "lon": "16.8292",
    "lat": "50.9875"
  },
  {
    "id": "152170150",
    "station": "Trąbczyn",
    "lon": "17.9761",
    "lat": "52.1381"
  },
  {
    "id": "149200370",
    "station": "Brzesko-Okocim",
    "lon": "20.5864",
    "lat": "49.9458"
  },
  {
    "id": "149190360",
    "station": "Ludźmierz",
    "lon": "19.9756",
    "lat": "49.4686"
  },
  {
    "id": "151170110",
    "station": "Bogusław",
    "lon": "17.9536",
    "lat": "51.8983"
  },
  {
    "id": "153180150",
    "station": "Rogóźno",
    "lon": "18.9489",
    "lat": "53.5167"
  },
  {
    "id": "149190310",
    "station": "Stróża",
    "lon": "19.9247",
    "lat": "49.7969"
  },
  {
    "id": "150170140",
    "station": "Skorogoszcz",
    "lon": "17.675",
    "lat": "50.7619"
  },
  {
    "id": "151160040",
    "station": "Bukowna",
    "lon": "16.0469",
    "lat": "51.31"
  },
  {
    "id": "151180030",
    "station": "Kuźnica Skakawska",
    "lon": "18.1317",
    "lat": "51.2797"
  },
  {
    "id": "150160250",
    "station": "Białobrzezie",
    "lon": "16.8922",
    "lat": "50.8022"
  },
  {
    "id": "154170060",
    "station": "Smołdzino",
    "lon": "17.2147",
    "lat": "54.6617"
  },
  {
    "id": "154170120",
    "station": "Soszyca",
    "lon": "17.5797",
    "lat": "54.25"
  },
  {
    "id": "149210070",
    "station": "Żółków",
    "lon": "21.4592",
    "lat": "49.73"
  },
  {
    "id": "150220020",
    "station": "Ruda Jastkowska",
    "lon": "22.1397",
    "lat": "50.5975"
  },
  {
    "id": "151180110",
    "station": "Uniejów",
    "lon": "18.7911",
    "lat": "51.9725"
  },
  {
    "id": "150160130",
    "station": "Mościsko",
    "lon": "16.5842",
    "lat": "50.7819"
  },
  {
    "id": "149200510",
    "station": "Brzesko-Miasto",
    "lon": "20.6183",
    "lat": "49.9678"
  },
  {
    "id": "150180270",
    "station": "Kozłowa Góra",
    "lon": "18.9719",
    "lat": "50.4122"
  },
  {
    "id": "150180080",
    "station": "Grabówka",
    "lon": "18.2758",
    "lat": "50.2844"
  },
  {
    "id": "150180180",
    "station": "Gliwice-Łabędy",
    "lon": "18.6153",
    "lat": "50.3425"
  },
  {
    "id": "151180140",
    "station": "Podgórze",
    "lon": "18.9431",
    "lat": "51.465"
  },
  {
    "id": "150180190",
    "station": "Krupski Młyn",
    "lon": "18.6244",
    "lat": "50.5711"
  },
  {
    "id": "151200020",
    "station": "Spała",
    "lon": "20.1339",
    "lat": "51.5372"
  },
  {
    "id": "150190070",
    "station": "Szabelnia",
    "lon": "19.1367",
    "lat": "50.2594"
  },
  {
    "id": "152160130",
    "station": "Mosin",
    "lon": "16.8564",
    "lat": "52.2483"
  },
  {
    "id": "149180060",
    "station": "Cieszyn",
    "lon": "18.6297",
    "lat": "49.7458"
  },
  {
    "id": "150150040",
    "station": "Barcinek",
    "lon": "15.6039",
    "lat": "50.9439"
  },
  {
    "id": "150150110",
    "station": "Kowary",
    "lon": "15.8342",
    "lat": "50.7947"
  },
  {
    "id": "151210010",
    "station": "Wąchock",
    "lon": "21.0189",
    "lat": "51.0758"
  },
  {
    "id": "150230010",
    "station": "Nielisz",
    "lon": "23.0411",
    "lat": "50.8086"
  },
  {
    "id": "150190240",
    "station": "Kręciwilk",
    "lon": "19.3703",
    "lat": "50.5453"
  },
  {
    "id": "150150060",
    "station": "Pilchowice",
    "lon": "15.6406",
    "lat": "50.9639"
  },
  {
    "id": "151170070",
    "station": "Odolanów",
    "lon": "17.67",
    "lat": "51.5756"
  },
  {
    "id": "150160060",
    "station": "Jugowice",
    "lon": "16.4033",
    "lat": "50.7331"
  },
  {
    "id": "150150030",
    "station": "Jakuszyce",
    "lon": "15.44",
    "lat": "50.8225"
  },
  {
    "id": "151160090",
    "station": "Jawor",
    "lon": "16.1897",
    "lat": "51.0483"
  },
  {
    "id": "150160170",
    "station": "Bystrzyca Kłodzka",
    "lon": "16.6483",
    "lat": "50.2936"
  },
  {
    "id": "150150200",
    "station": "Sosnówka",
    "lon": "15.7192",
    "lat": "50.8222"
  },
  {
    "id": "149200360",
    "station": "Lipnica Murowana",
    "lon": "20.53",
    "lat": "49.8597"
  },
  {
    "id": "154190140",
    "station": "Braniewo",
    "lon": "19.8264",
    "lat": "54.3842"
  },
  {
    "id": "151160170",
    "station": "Brzeg Dolny",
    "lon": "16.7267",
    "lat": "51.2606"
  },
  {
    "id": "151140020",
    "station": "Pleśno",
    "lon": "14.7544",
    "lat": "51.9156"
  },
  {
    "id": "153220010",
    "station": "Piątnica-Łomża",
    "lon": "22.0933",
    "lat": "53.1933"
  },
  {
    "id": "152210170",
    "station": "Warszawa-Bulwary",
    "lon": "21.0208",
    "lat": "52.2472"
  }
]